{
"type": "FeatureCollection",
"name": "Organizations",
"crs": { "type": "name", "properties": { "name": "urn:ogc:def:crs:OGC:1.3:CRS84" } },
"features": [
{ "type": "Feature", "properties": { "Name": "The Sandcastle" }, "geometry": { "type": "Point", "coordinates": [ -80.1177444, 32.592411 ] } },
{ "type": "Feature", "properties": { "Name": "South Carolina Arts Commission" }, "geometry": { "type": "Point", "coordinates": [ -81.030868, 34.000118 ] } },
{ "type": "Feature", "properties": { "Name": "MOJA Arts Festival" }, "geometry": { "type": "Point", "coordinates": [ -79.9307725, 32.7879192 ] } },
{ "type": "Feature", "properties": { "Name": "Gullah\/Geechee Sea Island Coalition" }, "geometry": { "type": "Point", "coordinates": [ -80.583096, 32.4140268 ] } },
{ "type": "Feature", "properties": { "Name": "Greater Goodwill AME Church" }, "geometry": { "type": "Point", "coordinates": [ -79.7990968, 32.8576456 ] } }
]
}
